{
  "type": "FeatureCollection",
  "generator": "overpass-ide",
  "copyright": "The data included in this document is from www.openstreetmap.org. The data is made available under ODbL.",
  "timestamp": "2019-10-02T13:24:02Z",
  "features": [
    {
      "type": "Feature",
      "properties": {
        "@id": "node/27434277",
        "ele": "106",
        "name": "Iquitos",
        "name:de": "Iquitos",
        "name:en": "Iquitos",
        "name:es": "Iquitos",
        "name:pl": "Iquitos",
        "name:ru": "Икитос",
        "name:uk": "Ікітос",
        "place": "city",
        "population": "465817",
        "wikidata": "Q193289",
        "wikipedia": "es:Iquitos"
      },
      "geometry": {
        "type": "Point",
        "coordinates": [
          -73.2444145,
          -3.749365
        ]
      },
      "id": "node/27434277"
    },
    {
      "type": "Feature",
      "properties": {
        "@id": "node/59043304",
        "ele": "3830",
        "name": "Puno",
        "name:de": "Puno",
        "name:en": "Puno",
        "name:es": "Puno",
        "name:pl": "Puno",
        "name:ru": "Пуно",
        "name:uk": "Пуно",
        "place": "city",
        "population": "140839",
        "wikidata": "Q232842",
        "wikipedia": "es:Puno"
      },
      "geometry": {
        "type": "Point",
        "coordinates": [
          -70.0283907,
          -15.8407581
        ]
      },
      "id": "node/59043304"
    },
    {
      "type": "Feature",
      "properties": {
        "@id": "node/59115290",
        "alt_name": "Cuzco",
        "capital": "4",
        "ele": "3310",
        "heritage": "1",
        "heritage:operator": "whc",
        "name": "Cusco",
        "name:de": "Cusco",
        "name:en": "Cusco",
        "name:es": "Cusco",
        "name:fr": "Cusco",
        "name:ko": "쿠스코",
        "name:pl": "Cuzco",
        "name:qu": "Qosqo",
        "name:ru": "Куско",
        "name:uk": "Куско",
        "place": "city",
        "population": "348935",
        "source:population": "wikipedia, 2016",
        "whc:inscription_date": "1983",
        "wikidata": "Q5582862",
        "wikipedia": "es:Cuzco"
      },
      "geometry": {
        "type": "Point",
        "coordinates": [
          -71.9711244,
          -13.5212349
        ]
      },
      "id": "node/59115290"
    },
    {
      "type": "Feature",
      "properties": {
        "@id": "node/249420619",
        "gns_classification": "PPL",
        "gns_uni": "-1367783",
        "is_in:country": "Peru",
        "is_in:country_code": "PE",
        "is_in:state": "Zarumilla",
        "name": "Aguas Verdes",
        "place": "town",
        "source": "GNS"
      },
      "geometry": {
        "type": "Point",
        "coordinates": [
          -80.2455802,
          -3.4818648
        ]
      },
      "id": "node/249420619"
    },
    {
      "type": "Feature",
      "properties": {
        "@id": "node/249420813",
        "gns_classification": "PPL",
        "gns_uni": "-1368086",
        "is_in:country": "Ecuador",
        "is_in:country_code": "EC",
        "is_in:state": "Provincia de Loja",
        "name": "Angashco",
        "place": "village",
        "source": "GNS"
      },
      "geometry": {
        "type": "Point",
        "coordinates": [
          -79.8614915,
          -4.4663795
        ]
      },
      "id": "node/249420813"
    },
    {
      "type": "Feature",
      "properties": {
        "@id": "node/249420945",
        "gns_classification": "PPL",
        "gns_uni": "-1368400",
        "is_in:country": "Ecuador",
        "is_in:country_code": "EC",
        "is_in:state": "Provincia de Loja",
        "name": "Badeal",
        "place": "village",
        "source": "GNS"
      },
      "geometry": {
        "type": "Point",
        "coordinates": [
          -79.983333,
          -4.383333
        ]
      },
      "id": "node/249420945"
    },
    {
      "type": "Feature",
      "properties": {
        "@id": "node/249422455",
        "gns_classification": "PPL",
        "gns_uni": "-1369540",
        "is_in:country": "Ecuador",
        "is_in:country_code": "EC",
        "is_in:state": "Provincia de Loja",
        "name": "Catambas",
        "place": "village",
        "source": "GNS"
      },
      "geometry": {
        "type": "Point",
        "coordinates": [
          -80.466667,
          -4.4
        ]
      },
      "id": "node/249422455"
    },
    {
      "type": "Feature",
      "properties": {
        "@id": "node/249423275",
        "gns_classification": "PPL",
        "gns_uni": "-1371280",
        "is_in:country": "Ecuador",
        "is_in:country_code": "EC",
        "is_in:state": "Provincia de El Oro",
        "name": "Dos Bocas",
        "place": "village",
        "source": "GNS"
      },
      "geometry": {
        "type": "Point",
        "coordinates": [
          -80.233333,
          -3.55
        ]
      },
      "id": "node/249423275"
    },
    {
      "type": "Feature",
      "properties": {
        "@id": "node/249423532",
        "gns_classification": "PPL",
        "gns_uni": "-1371593",
        "is_in:country": "Ecuador",
        "is_in:country_code": "EC",
        "is_in:state": "Provincia de Loja",
        "name": "El Loro",
        "place": "village",
        "source": "GNS"
      },
      "geometry": {
        "type": "Point",
        "coordinates": [
          -80.4345346,
          -4.3314501
        ]
      },
      "id": "node/249423532"
    },
    {
      "type": "Feature",
      "properties": {
        "@id": "node/249423666",
        "gns_classification": "PPL",
        "gns_uni": "-1371773",
        "is_in:country": "Ecuador",
        "is_in:country_code": "EC",
        "is_in:state": "Provincia de Loja",
        "name": "El Salto",
        "place": "village",
        "source": "GNS"
      },
      "geometry": {
        "type": "Point",
        "coordinates": [
          -80.3654205,
          -4.2485042
        ]
      },
      "id": "node/249423666"
    },
    {
      "type": "Feature",
      "properties": {
        "@id": "node/249424087",
        "gns_classification": "PPL",
        "gns_uni": "-1372602",
        "is_in:country": "Ecuador",
        "is_in:country_code": "EC",
        "is_in:state": "Provincia de Loja",
        "name": "Guatara",
        "place": "village",
        "source": "GNS"
      },
      "geometry": {
        "type": "Point",
        "coordinates": [
          -80.0160721,
          -4.3661803
        ]
      },
      "id": "node/249424087"
    },
    {
      "type": "Feature",
      "properties": {
        "@id": "node/249429252",
        "gns_classification": "PPL",
        "gns_uni": "-1375230",
        "is_in:country": "Ecuador",
        "is_in:country_code": "EC",
        "is_in:state": "Provincia de Loja",
        "name": "La Bocana",
        "place": "village",
        "source": "GNS"
      },
      "geometry": {
        "type": "Point",
        "coordinates": [
          -80.416667,
          -4.466667
        ]
      },
      "id": "node/249429252"
    },
    {
      "type": "Feature",
      "properties": {
        "@id": "node/249429779",
        "gns_classification": "PPL",
        "gns_uni": "-1375566",
        "is_in:country": "Ecuador",
        "is_in:country_code": "EC",
        "is_in:state": "Provincia de El Oro",
        "name": "La Manga",
        "place": "village",
        "source": "GNS"
      },
      "geometry": {
        "type": "Point",
        "coordinates": [
          -80.2,
          -3.6
        ]
      },
      "id": "node/249429779"
    },
    {
      "type": "Feature",
      "properties": {
        "@id": "node/249596524",
        "gns_classification": "PPL",
        "gns_uni": "-1378048",
        "is_in:country": "Ecuador",
        "is_in:country_code": "EC",
        "is_in:state": "Provincia de Loja",
        "name": "Pasayogacho",
        "place": "village",
        "source": "GNS"
      },
      "geometry": {
        "type": "Point",
        "coordinates": [
          -80.433333,
          -4.333333
        ]
      },
      "id": "node/249596524"
    },
    {
      "type": "Feature",
      "properties": {
        "@id": "node/249597783",
        "gns_classification": "PPL",
        "gns_uni": "-1378982",
        "is_in:country": "Ecuador",
        "is_in:country_code": "EC",
        "is_in:state": "Provincia de El Oro",
        "name": "Puerto Cayambe",
        "place": "village",
        "source": "GNS"
      },
      "geometry": {
        "type": "Point",
        "coordinates": [
          -80.266667,
          -3.45
        ]
      },
      "id": "node/249597783"
    },
    {
      "type": "Feature",
      "properties": {
        "@id": "node/249599409",
        "gns_classification": "PPL",
        "gns_uni": "-1382368",
        "is_in:country": "Ecuador",
        "is_in:country_code": "EC",
        "is_in:state": "Provincia de Loja",
        "name": "Tulipán",
        "place": "village",
        "source": "GNS"
      },
      "geometry": {
        "type": "Point",
        "coordinates": [
          -80.3777237,
          -4.2664177
        ]
      },
      "id": "node/249599409"
    },
    {
      "type": "Feature",
      "properties": {
        "@id": "node/249599620",
        "gns_classification": "PPL",
        "gns_uni": "-1382256",
        "is_in:country": "Ecuador",
        "is_in:country_code": "EC",
        "is_in:state": "Provincia de Loja",
        "name": "Totoras",
        "place": "village",
        "source": "GNS"
      },
      "geometry": {
        "type": "Point",
        "coordinates": [
          -80.483333,
          -4.1
        ]
      },
      "id": "node/249599620"
    },
    {
      "type": "Feature",
      "properties": {
        "@id": "node/249600061",
        "gns_classification": "PPL",
        "gns_uni": "391442",
        "is_in:country": "Ecuador",
        "is_in:country_code": "EC",
        "is_in:state": "Provincia de Morona Santiago",
        "name": "Pachacutec",
        "place": "village",
        "source": "GNS"
      },
      "geometry": {
        "type": "Point",
        "coordinates": [
          -77.92,
          -3.058889
        ]
      },
      "id": "node/249600061"
    },
    {
      "type": "Feature",
      "properties": {
        "@id": "node/253855157",
        "admin_level": "4",
        "alt_name": "aqp",
        "name": "Arequipa",
        "name:de": "Arequipa",
        "name:en": "Arequipa",
        "name:es": "Arequipa",
        "name:pl": "Arequipa",
        "name:ru": "Арекипа",
        "name:uk": "Арекіпа",
        "place": "city",
        "population": "844000",
        "reg_name": "Blanca Ciudad",
        "wikidata": "Q159273",
        "wikipedia": "es:Arequipa"
      },
      "geometry": {
        "type": "Point",
        "coordinates": [
          -71.5369607,
          -16.3988667
        ]
      },
      "id": "node/253855157"
    },
    {
      "type": "Feature",
      "properties": {
        "@id": "node/253905310",
        "ele": "3824",
        "is_in": "Peru",
        "is_in:continent": "South America",
        "is_in:country": "Peru",
        "name": "Juliaca",
        "name:en": "Juliaca",
        "name:es": "Juliaca",
        "name:fr": "Juliaca",
        "name:pt": "Juliaca",
        "name:qu": "Juliaca",
        "name:ru": "Хульяка",
        "name:uk": "Хульяка",
        "place": "city",
        "population": "270340",
        "wikidata": "Q696074",
        "wikipedia": "en:Juliaca"
      },
      "geometry": {
        "type": "Point",
        "coordinates": [
          -70.132216,
          -15.4915945
        ]
      },
      "id": "node/253905310"
    },
    {
      "type": "Feature",
      "properties": {
        "@id": "node/253906555",
        "ele": "3638",
        "name": "Chivay",
        "place": "town",
        "wikidata": "Q2351933",
        "wikipedia": "es:Chivay"
      },
      "geometry": {
        "type": "Point",
        "coordinates": [
          -71.602217,
          -15.6366885
        ]
      },
      "id": "node/253906555"
    },
    {
      "type": "Feature",
      "properties": {
        "@id": "node/253906647",
        "ele": "3428",
        "name": "Yanque",
        "place": "town",
        "wikidata": "Q27667707",
        "wikipedia": "es:Yanque"
      },
      "geometry": {
        "type": "Point",
        "coordinates": [
          -71.6588453,
          -15.6495091
        ]
      },
      "id": "node/253906647"
    },
    {
      "type": "Feature",
      "properties": {
        "@id": "node/253906730",
        "ele": "3296",
        "name": "Cabanaconde",
        "place": "town",
        "wikidata": "Q27728577",
        "wikipedia": "es:Cabanaconde"
      },
      "geometry": {
        "type": "Point",
        "coordinates": [
          -71.9808701,
          -15.6220756
        ]
      },
      "id": "node/253906730"
    },
    {
      "type": "Feature",
      "properties": {
        "@id": "node/253907271",
        "name": "Alto de Majes",
        "place": "village"
      },
      "geometry": {
        "type": "Point",
        "coordinates": [
          -72.1552939,
          -16.3610681
        ]
      },
      "id": "node/253907271"
    },
    {
      "type": "Feature",
      "properties": {
        "@id": "node/253908195",
        "ele": "2602",
        "name": "Yura",
        "place": "town"
      },
      "geometry": {
        "type": "Point",
        "coordinates": [
          -71.681378,
          -16.2528829
        ]
      },
      "id": "node/253908195"
    },
    {
      "type": "Feature",
      "properties": {
        "@id": "node/253909180",
        "is_in": "Peru",
        "name": "Pisco",
        "name:en": "Pisco",
        "name:ru": "Писко",
        "name:uk": "Піско",
        "place": "city",
        "source": "Kaart Ground Survey 2017",
        "wikidata": "Q290504"
      },
      "geometry": {
        "type": "Point",
        "coordinates": [
          -76.2029793,
          -13.7099813
        ]
      },
      "id": "node/253909180"
    },
    {
      "type": "Feature",
      "properties": {
        "@id": "node/254014114",
        "ele": "16",
        "name": "Camaná",
        "name:ru": "Камана",
        "name:uk": "Камана",
        "place": "town",
        "wikidata": "Q1028011"
      },
      "geometry": {
        "type": "Point",
        "coordinates": [
          -72.7114514,
          -16.6248458
        ]
      },
      "id": "node/254014114"
    },
    {
      "type": "Feature",
      "properties": {
        "@id": "node/256492616",
        "is_in": "Peru",
        "name": "Carhuamayo",
        "place": "town"
      },
      "geometry": {
        "type": "Point",
        "coordinates": [
          -76.0578361,
          -10.9224563
        ]
      },
      "id": "node/256492616"
    },
    {
      "type": "Feature",
      "properties": {
        "@id": "node/257938074",
        "is_in": "Peru",
        "name": "Ollantaytambo",
        "name:lt": "Oljantaintambas",
        "name:uk": "Ольянтайтамбо",
        "place": "village",
        "wikidata": "Q916382",
        "wikipedia": "qu:Ullantaytampu"
      },
      "geometry": {
        "type": "Point",
        "coordinates": [
          -72.2636012,
          -13.2586458
        ]
      },
      "id": "node/257938074"
    },
    {
      "type": "Feature",
      "properties": {
        "@id": "node/258064159",
        "name": "Ica",
        "name:de": "Ica",
        "name:en": "Ica",
        "name:es": "Ica",
        "name:ko": "이카",
        "name:pl": "Ica",
        "name:ru": "Iкa",
        "name:uk": "Іка",
        "place": "city",
        "wikidata": "Q840712",
        "wikipedia": "es:Ica"
      },
      "geometry": {
        "type": "Point",
        "coordinates": [
          -75.7294026,
          -14.0634905
        ]
      },
      "id": "node/258064159"
    },
    {
      "type": "Feature",
      "properties": {
        "@id": "node/258072425",
        "ele": "38",
        "name": "Mollendo",
        "place": "city",
        "population": "28953",
        "wikidata": "Q2351948"
      },
      "geometry": {
        "type": "Point",
        "coordinates": [
          -72.0155447,
          -17.0292533
        ]
      },
      "id": "node/258072425"
    },
    {
      "type": "Feature",
      "properties": {
        "@id": "node/258083746",
        "ele": "2687",
        "name": "Cotahuasi",
        "place": "town"
      },
      "geometry": {
        "type": "Point",
        "coordinates": [
          -72.889254,
          -15.2126221
        ]
      },
      "id": "node/258083746"
    },
    {
      "type": "Feature",
      "properties": {
        "@id": "node/258168844",
        "ele": "4335",
        "name": "Caylloma",
        "place": "town"
      },
      "geometry": {
        "type": "Point",
        "coordinates": [
          -71.7729945,
          -15.1885771
        ]
      },
      "id": "node/258168844"
    },
    {
      "type": "Feature",
      "properties": {
        "@id": "node/258186500",
        "ele": "435",
        "name": "Corire",
        "place": "town"
      },
      "geometry": {
        "type": "Point",
        "coordinates": [
          -72.4710552,
          -16.2229187
        ]
      },
      "id": "node/258186500"
    },
    {
      "type": "Feature",
      "properties": {
        "@id": "node/258187852",
        "ele": "622",
        "name": "Aplao",
        "place": "town"
      },
      "geometry": {
        "type": "Point",
        "coordinates": [
          -72.4921172,
          -16.0764611
        ]
      },
      "id": "node/258187852"
    },
    {
      "type": "Feature",
      "properties": {
        "@id": "node/258190347",
        "is_in": "Peru",
        "name": "San Camilo Acentamiento 5",
        "place": "village"
      },
      "geometry": {
        "type": "Point",
        "coordinates": [
          -71.9092682,
          -16.6993489
        ]
      },
      "id": "node/258190347"
    },
    {
      "type": "Feature",
      "properties": {
        "@id": "node/258191322",
        "name": "El Cruce",
        "place": "village"
      },
      "geometry": {
        "type": "Point",
        "coordinates": [
          -71.8385732,
          -16.4964757
        ]
      },
      "id": "node/258191322"
    },
    {
      "type": "Feature",
      "properties": {
        "@id": "node/258308774",
        "name": "Paracas",
        "place": "village"
      },
      "geometry": {
        "type": "Point",
        "coordinates": [
          -76.2496219,
          -13.8350425
        ]
      },
      "id": "node/258308774"
    },
    {
      "type": "Feature",
      "properties": {
        "@id": "node/259414539",
        "ele": "3584",
        "name": "Coporaque",
        "place": "town",
        "population": "852",
        "population:source": "inei",
        "wikidata": "Q27728580",
        "wikipedia": "es:Coporaque (Arequipa)"
      },
      "geometry": {
        "type": "Point",
        "coordinates": [
          -71.6455756,
          -15.6270159
        ]
      },
      "id": "node/259414539"
    },
    {
      "type": "Feature",
      "properties": {
        "@id": "node/259427451",
        "ele": "3492",
        "name": "Achoma",
        "place": "town"
      },
      "geometry": {
        "type": "Point",
        "coordinates": [
          -71.6999231,
          -15.6615552
        ]
      },
      "id": "node/259427451"
    },
    {
      "type": "Feature",
      "properties": {
        "@id": "node/259787836",
        "ele": "3408",
        "name": "Ichupampa",
        "place": "town"
      },
      "geometry": {
        "type": "Point",
        "coordinates": [
          -71.686536,
          -15.6497847
        ]
      },
      "id": "node/259787836"
    },
    {
      "type": "Feature",
      "properties": {
        "@id": "node/259788031",
        "ele": "3356",
        "name": "Lari",
        "place": "town"
      },
      "geometry": {
        "type": "Point",
        "coordinates": [
          -71.7685005,
          -15.6233676
        ]
      },
      "id": "node/259788031"
    },
    {
      "type": "Feature",
      "properties": {
        "@id": "node/259788051",
        "ele": "3274",
        "name": "Madrigal",
        "place": "town",
        "wikidata": "Q27728536",
        "wikipedia": "es:Madrigal (Caylloma)"
      },
      "geometry": {
        "type": "Point",
        "coordinates": [
          -71.8077023,
          -15.6082729
        ]
      },
      "id": "node/259788051"
    },
    {
      "type": "Feature",
      "properties": {
        "@id": "node/259788103",
        "is_in": "Peru",
        "name": "Pinchollo",
        "place": "town"
      },
      "geometry": {
        "type": "Point",
        "coordinates": [
          -71.839074,
          -15.6151323
        ]
      },
      "id": "node/259788103"
    },
    {
      "type": "Feature",
      "properties": {
        "@id": "node/262942980",
        "name": "Santa Lucía",
        "place": "village"
      },
      "geometry": {
        "type": "Point",
        "coordinates": [
          -70.6065559,
          -15.6987668
        ]
      },
      "id": "node/262942980"
    },
    {
      "type": "Feature",
      "properties": {
        "@id": "node/262944677",
        "name": "Nicasio",
        "place": "village"
      },
      "geometry": {
        "type": "Point",
        "coordinates": [
          -70.260922,
          -15.2355119
        ]
      },
      "id": "node/262944677"
    },
    {
      "type": "Feature",
      "properties": {
        "@id": "node/262944737",
        "ele": "3886",
        "name": "Tirapata",
        "place": "town"
      },
      "geometry": {
        "type": "Point",
        "coordinates": [
          -70.403177,
          -14.9548166
        ]
      },
      "id": "node/262944737"
    },
    {
      "type": "Feature",
      "properties": {
        "@id": "node/262944908",
        "is_in": "Melgar, Peru",
        "name": "Ayaviri",
        "place": "town",
        "wikidata": "Q3344141"
      },
      "geometry": {
        "type": "Point",
        "coordinates": [
          -70.5900142,
          -14.8818397
        ]
      },
      "id": "node/262944908"
    },
    {
      "type": "Feature",
      "properties": {
        "@id": "node/262945603",
        "name": "Sicuani",
        "name:ru": "Сикуани",
        "place": "town",
        "population": "55269",
        "source": "bing;MTC",
        "wikidata": "Q2608412",
        "wikipedia": "es:Distrito de Sicuani"
      },
      "geometry": {
        "type": "Point",
        "coordinates": [
          -71.2265322,
          -14.2729288
        ]
      },
      "id": "node/262945603"
    },
    {
      "type": "Feature",
      "properties": {
        "@id": "node/262945615",
        "created_by": "Potlatch 0.9",
        "name": "Combapata",
        "place": "village"
      },
      "geometry": {
        "type": "Point",
        "coordinates": [
          -71.4304778,
          -14.101101
        ]
      },
      "id": "node/262945615"
    },
    {
      "type": "Feature",
      "properties": {
        "@id": "node/262945651",
        "fixme": "yes",
        "name": "Mosec Llacta",
        "place": "village"
      },
      "geometry": {
        "type": "Point",
        "coordinates": [
          -71.4843677,
          -14.0445857
        ]
      },
      "id": "node/262945651"
    },
    {
      "type": "Feature",
      "properties": {
        "@id": "node/262947346",
        "name": "Caracoto",
        "place": "village"
      },
      "geometry": {
        "type": "Point",
        "coordinates": [
          -70.1024942,
          -15.5678983
        ]
      },
      "id": "node/262947346"
    },
    {
      "type": "Feature",
      "properties": {
        "@id": "node/267367571",
        "is_in": "Peru",
        "name": "Hector Tejada",
        "place": "town",
        "source": "http://www.mtc.gob.pe/estadisticas/estadistica/mapas/TRANSPORTES/VIAL/08_CUSCO_VIAL.pdf"
      },
      "geometry": {
        "type": "Point",
        "coordinates": [
          -71.209704,
          -14.8905813
        ]
      },
      "id": "node/267367571"
    },
    {
      "type": "Feature",
      "properties": {
        "@id": "node/267367682",
        "alt_name": "Espinar",
        "description": "Capital de la provincia de Espinar",
        "is_in": "Peru",
        "loc_name": "Espinar",
        "name": "Yauri",
        "name:es": "Yauri (Espinar)",
        "place": "town",
        "source": "bing;MTC",
        "wikidata": "Q3345555",
        "wikipedia": "es:Yauri"
      },
      "geometry": {
        "type": "Point",
        "coordinates": [
          -71.412802,
          -14.7930081
        ]
      },
      "id": "node/267367682"
    },
    {
      "type": "Feature",
      "properties": {
        "@id": "node/267374528",
        "ele": "3862",
        "name": "Ilave",
        "name:ru": "Илаве",
        "place": "town",
        "wikidata": "Q3348236"
      },
      "geometry": {
        "type": "Point",
        "coordinates": [
          -69.6389651,
          -16.085402
        ]
      },
      "id": "node/267374528"
    },
    {
      "type": "Feature",
      "properties": {
        "@id": "node/268116782",
        "name": "Huancavelica",
        "name:de": "Huancavelica",
        "name:en": "Huancavelica",
        "name:es": "Huancavelica",
        "name:pl": "Huancavelica",
        "name:ru": "Уанкавелика",
        "name:uk": "Уанкавеліка",
        "place": "town",
        "wikidata": "Q1000333",
        "wikipedia": "es:Huancavelica"
      },
      "geometry": {
        "type": "Point",
        "coordinates": [
          -74.9730951,
          -12.78728
        ]
      },
      "id": "node/268116782"
    },
    {
      "type": "Feature",
      "properties": {
        "@id": "node/268127318",
        "name": "Huancayo",
        "name:de": "Huancayo",
        "name:en": "Huancayo",
        "name:es": "Huancayo",
        "name:pl": "Huancayo",
        "name:ru": "Уанкайо",
        "name:uk": "Уанкайо",
        "place": "city",
        "wikidata": "Q468782",
        "wikipedia": "es:Huancayo"
      },
      "geometry": {
        "type": "Point",
        "coordinates": [
          -75.2063189,
          -12.0761679
        ]
      },
      "id": "node/268127318"
    },
    {
      "type": "Feature",
      "properties": {
        "@id": "node/268130103",
        "is_in": "Peru",
        "name": "La Oroya",
        "name:ru": "Ороя",
        "place": "town",
        "wikidata": "Q1759360"
      },
      "geometry": {
        "type": "Point",
        "coordinates": [
          -75.8998811,
          -11.5213917
        ]
      },
      "id": "node/268130103"
    },
    {
      "type": "Feature",
      "properties": {
        "@id": "node/268582528",
        "alt_name": "San Pedro de Antahualla la Grande, de la Corona",
        "ele": "2930",
        "is_in": "Peru",
        "name": "Andahuaylas",
        "place": "town",
        "website": "http://www.muniandahuaylas.gob.pe/",
        "wikidata": "Q489660",
        "wikipedia": "es:Andahuaylas",
        "wikipedia:de": "Andahuaylas"
      },
      "geometry": {
        "type": "Point",
        "coordinates": [
          -73.3899459,
          -13.6564057
        ]
      },
      "id": "node/268582528"
    },
    {
      "type": "Feature",
      "properties": {
        "@id": "node/268599713",
        "ele": "2380",
        "name": "Abancay",
        "name:de": "Abancay",
        "name:en": "Abancay",
        "name:es": "Abancay",
        "name:pl": "Abancay",
        "name:ru": "Абанкай",
        "name:uk": "Абанкай",
        "place": "city",
        "source": "bing,geocatmin,GNS",
        "wikidata": "Q215238",
        "wikipedia": "es:Abancay"
      },
      "geometry": {
        "type": "Point",
        "coordinates": [
          -72.8788744,
          -13.6373482
        ]
      },
      "id": "node/268599713"
    },
    {
      "type": "Feature",
      "properties": {
        "@id": "node/268802158",
        "description": "Ciudad del Perú, capital del departamento de Madre de Dios",
        "name": "Puerto Maldonado",
        "name:de": "Puerto Maldonado",
        "name:en": "Puerto Maldonado",
        "name:es": "Puerto Maldonado",
        "name:pl": "Puerto Maldonado",
        "name:ru": "Пуэрто-Мальдонадо",
        "name:uk": "Пуерто-Малдонадо",
        "place": "city",
        "population": "92000",
        "source:population": "French Wikipedia",
        "wikidata": "Q541435",
        "wikipedia": "es:Puerto Maldonado",
        "wikipedia:en": "Puerto Maldonado"
      },
      "geometry": {
        "type": "Point",
        "coordinates": [
          -69.1866773,
          -12.5938633
        ]
      },
      "id": "node/268802158"
    },
    {
      "type": "Feature",
      "properties": {
        "@id": "node/269989213",
        "name": "Contamana",
        "name:ru": "Контамана",
        "place": "town",
        "wikidata": "Q3317773"
      },
      "geometry": {
        "type": "Point",
        "coordinates": [
          -75.0090611,
          -7.3504619
        ]
      },
      "id": "node/269989213"
    },
    {
      "type": "Feature",
      "properties": {
        "@id": "node/270919346",
        "is_in": "Peru",
        "name": "Atalaya",
        "place": "city",
        "population": "10243",
        "population:date": "2005",
        "source": "http://www.peru.gob.pe/Nuevo_Portal_Municipal/Portales/Municipalidades/1859/gal_tematico/1859/PM_1859_3134_Plano%20de%20Atalaya_2010.jpg",
        "website": "http://www.muniatalaya.gob.pe",
        "wikidata": "Q3322627",
        "wikipedia": "es:Atalaya (Ucayali)"
      },
      "geometry": {
        "type": "Point",
        "coordinates": [
          -73.7548827,
          -10.7299061
        ]
      },
      "id": "node/270919346"
    },
    {
      "type": "Feature",
      "properties": {
        "@id": "node/271351213",
        "name": "Yurimaguas",
        "place": "town",
        "population": "64000",
        "wikidata": "Q117625"
      },
      "geometry": {
        "type": "Point",
        "coordinates": [
          -76.1046533,
          -5.8951672
        ]
      },
      "id": "node/271351213"
    },
    {
      "type": "Feature",
      "properties": {
        "@id": "node/272029209",
        "name": "Ayacucho",
        "name:de": "Ayacucho",
        "name:en": "Ayacucho",
        "name:es": "Ayacucho",
        "name:pl": "Ayacucho",
        "name:ru": "Аякучо",
        "name:uk": "Аякучо",
        "place": "city",
        "wikidata": "Q504215",
        "wikipedia": "es:Ayacucho"
      },
      "geometry": {
        "type": "Point",
        "coordinates": [
          -74.2256973,
          -13.1604269
        ]
      },
      "id": "node/272029209"
    },
    {
      "type": "Feature",
      "properties": {
        "@id": "node/272367389",
        "name": "Huaraz",
        "name:de": "Huaraz",
        "name:en": "Huaraz",
        "name:es": "Huaraz",
        "name:ko": "와라즈",
        "name:pl": "Huaraz",
        "name:ru": "Уарас",
        "name:uk": "Уарас",
        "place": "city",
        "population": "127000",
        "wikidata": "Q793809",
        "wikipedia": "es:Huaraz"
      },
      "geometry": {
        "type": "Point",
        "coordinates": [
          -77.5289981,
          -9.5298511
        ]
      },
      "id": "node/272367389"
    },
    {
      "type": "Feature",
      "properties": {
        "@id": "node/272377981",
        "name": "Trujillo",
        "name:de": "Trujillo",
        "name:en": "Trujillo",
        "name:es": "Trujillo",
        "name:pl": "Trujillo",
        "name:ru": "Трухильо",
        "name:uk": "Трухійо",
        "place": "city",
        "population": "709566",
        "wikidata": "Q214173",
        "wikipedia": "es:Trujillo (Perú)"
      },
      "geometry": {
        "type": "Point",
        "coordinates": [
          -79.0287742,
          -8.1116778
        ]
      },
      "id": "node/272377981"
    },
    {
      "type": "Feature",
      "properties": {
        "@id": "node/272378756",
        "name": "Cajamarca",
        "name:de": "Cajamarca",
        "name:en": "Cajamarca",
        "name:es": "Cajamarca",
        "name:pl": "Cajamarca",
        "name:ru": "Кахамарка",
        "name:uk": "Кахамарка",
        "place": "city",
        "wikidata": "Q205119",
        "wikipedia": "es:Cajamarca"
      },
      "geometry": {
        "type": "Point",
        "coordinates": [
          -78.517306,
          -7.1566682
        ]
      },
      "id": "node/272378756"
    },
    {
      "type": "Feature",
      "properties": {
        "@id": "node/272379571",
        "capital": "4",
        "name": "Piura",
        "name:de": "Piura",
        "name:en": "Piura",
        "name:es": "Piura",
        "name:pl": "Piura",
        "name:ru": "Пьюра",
        "name:uk": "Піура",
        "old_name": "San Miguel de Piura",
        "place": "city",
        "population": "421648",
        "website": "http://www.munipiura.gob.pe/",
        "wikidata": "Q223966",
        "wikipedia": "es:Piura"
      },
      "geometry": {
        "type": "Point",
        "coordinates": [
          -80.6323,
          -5.1949018
        ]
      },
      "id": "node/272379571"
    },
    {
      "type": "Feature",
      "properties": {
        "@id": "node/272399411",
        "capital": "4",
        "ele": "4380",
        "name": "Cerro de Pasco",
        "name:de": "Cerro de Pasco",
        "name:en": "Cerro de Pasco",
        "name:es": "Cerro de Pasco",
        "name:pl": "Cerro de Pasco",
        "name:ru": "Серро-де-Паско",
        "name:uk": "Серро-де-Паско",
        "place": "city",
        "population": "70000",
        "wikidata": "Q674320",
        "wikipedia": "es:Cerro de Pasco"
      },
      "geometry": {
        "type": "Point",
        "coordinates": [
          -76.254916,
          -10.6667815
        ]
      },
      "id": "node/272399411"
    },
    {
      "type": "Feature",
      "properties": {
        "@id": "node/272400894",
        "is_in": "Peru",
        "is_in:continent": "South America",
        "is_in:country": "Peru",
        "name": "Tarapoto",
        "name:ru": "Тарапото",
        "old_name": "Santa Cruz de los Motilones de Tarapoto",
        "place": "city",
        "population": "176000",
        "wikidata": "Q927933",
        "wikipedia": "es:Tarapoto"
      },
      "geometry": {
        "type": "Point",
        "coordinates": [
          -76.3598708,
          -6.4877198
        ]
      },
      "id": "node/272400894"
    },
    {
      "type": "Feature",
      "properties": {
        "@id": "node/272401474",
        "name": "Huánuco",
        "name:de": "Huánuco",
        "name:en": "Huánuco",
        "name:es": "Huánuco",
        "name:pl": "Huánuco",
        "name:ru": "Уануко",
        "name:uk": "Уануко",
        "place": "city",
        "population": "120000",
        "wikidata": "Q504394",
        "wikipedia": "es:Huánuco"
      },
      "geometry": {
        "type": "Point",
        "coordinates": [
          -76.2394845,
          -9.9293255
        ]
      },
      "id": "node/272401474"
    },
    {
      "type": "Feature",
      "properties": {
        "@id": "node/275587595",
        "ele": "283",
        "is_in": "Peru",
        "is_in:country": "Peru",
        "is_in:county": "Mariscal Cáceres",
        "is_in:state": "San Martín",
        "name": "Juanjuí",
        "place": "town",
        "website": "http://www.juanjui.com",
        "wikidata": "Q2671983",
        "wikipedia": "es:Juanjuí"
      },
      "geometry": {
        "type": "Point",
        "coordinates": [
          -76.7280743,
          -7.1793768
        ]
      },
      "id": "node/275587595"
    },
    {
      "type": "Feature",
      "properties": {
        "@id": "node/276081341",
        "is_in": "Peru",
        "name": "Orellana",
        "name:ru": "Орельяна",
        "place": "village"
      },
      "geometry": {
        "type": "Point",
        "coordinates": [
          -75.1582988,
          -6.9114308
        ]
      },
      "id": "node/276081341"
    },
    {
      "type": "Feature",
      "properties": {
        "@id": "node/276089971",
        "is_in": "Peru",
        "name": "Jeberos",
        "place": "village"
      },
      "geometry": {
        "type": "Point",
        "coordinates": [
          -76.2829837,
          -5.291513
        ]
      },
      "id": "node/276089971"
    },
    {
      "type": "Feature",
      "properties": {
        "@id": "node/276090685",
        "is_in": "Peru",
        "name": "San Lorenzo",
        "place": "town"
      },
      "geometry": {
        "type": "Point",
        "coordinates": [
          -76.5531983,
          -4.83117
        ]
      },
      "id": "node/276090685"
    },
    {
      "type": "Feature",
      "properties": {
        "@id": "node/276523895",
        "is_in": "Peru",
        "name": "Tarma",
        "name:es": "Parque principal",
        "place": "town",
        "wikidata": "Q1759366"
      },
      "geometry": {
        "type": "Point",
        "coordinates": [
          -75.6877329,
          -11.4199928
        ]
      },
      "id": "node/276523895"
    },
    {
      "type": "Feature",
      "properties": {
        "@id": "node/276524293",
        "is_in": "Peru",
        "name": "San Ramón",
        "place": "town",
        "wikidata": "Q2219996",
        "wikipedia": "es:San Ramón (Perú)"
      },
      "geometry": {
        "type": "Point",
        "coordinates": [
          -75.3521478,
          -11.1214018
        ]
      },
      "id": "node/276524293"
    },
    {
      "type": "Feature",
      "properties": {
        "@id": "node/276524308",
        "is_in": "Peru",
        "name": "La Merced",
        "place": "town",
        "population": "19983",
        "population:date": "2005-08-20",
        "source:population": "censo 2005",
        "wikidata": "Q1014543",
        "wikipedia": "es:La Merced (Chanchamayo)"
      },
      "geometry": {
        "type": "Point",
        "coordinates": [
          -75.3282355,
          -11.0560593
        ]
      },
      "id": "node/276524308"
    },
    {
      "type": "Feature",
      "properties": {
        "@id": "node/277434359",
        "is_in": "Peru",
        "name": "Picota",
        "place": "town"
      },
      "geometry": {
        "type": "Point",
        "coordinates": [
          -76.3303859,
          -6.9202134
        ]
      },
      "id": "node/277434359"
    },
    {
      "type": "Feature",
      "properties": {
        "@id": "node/277755254",
        "is_in": "Peru",
        "name": "Tingo María",
        "place": "town",
        "wikidata": "Q1974467"
      },
      "geometry": {
        "type": "Point",
        "coordinates": [
          -76.0003034,
          -9.2983713
        ]
      },
      "id": "node/277755254"
    },
    {
      "type": "Feature",
      "properties": {
        "@id": "node/277761742",
        "is_in": "Peru",
        "name": "Aucayacu",
        "place": "town"
      },
      "geometry": {
        "type": "Point",
        "coordinates": [
          -76.1159788,
          -8.9317073
        ]
      },
      "id": "node/277761742"
    },
    {
      "type": "Feature",
      "properties": {
        "@id": "node/277763267",
        "is_in": "Peru",
        "name": "Santa Lucia",
        "place": "village"
      },
      "geometry": {
        "type": "Point",
        "coordinates": [
          -76.3909468,
          -8.3469093
        ]
      },
      "id": "node/277763267"
    },
    {
      "type": "Feature",
      "properties": {
        "@id": "node/277764037",
        "is_in": "Peru",
        "name": "Tocache",
        "place": "town",
        "wikidata": "Q3344048"
      },
      "geometry": {
        "type": "Point",
        "coordinates": [
          -76.510263,
          -8.1887651
        ]
      },
      "id": "node/277764037"
    },
    {
      "type": "Feature",
      "properties": {
        "@id": "node/278074020",
        "is_in": "Peru",
        "name": "Jaén",
        "place": "city",
        "source": "MTC",
        "wikidata": "Q1229885"
      },
      "geometry": {
        "type": "Point",
        "coordinates": [
          -78.8075898,
          -5.7086087
        ]
      },
      "id": "node/278074020"
    },
    {
      "type": "Feature",
      "properties": {
        "@id": "node/278074108",
        "ele": "419",
        "name": "Bagua",
        "place": "town",
        "wikidata": "Q605805",
        "wikipedia": "es:Distrito de Bagua",
        "wikipedia:en": "Bagua District"
      },
      "geometry": {
        "type": "Point",
        "coordinates": [
          -78.5317246,
          -5.6390867
        ]
      },
      "id": "node/278074108"
    },
    {
      "type": "Feature",
      "properties": {
        "@id": "node/283417318",
        "ele": "2259",
        "name": "Sachaca",
        "place": "town"
      },
      "geometry": {
        "type": "Point",
        "coordinates": [
          -71.5666111,
          -16.424572
        ]
      },
      "id": "node/283417318"
    },
    {
      "type": "Feature",
      "properties": {
        "@id": "node/286780224",
        "is_in": "Peru",
        "name": "Junín",
        "place": "town",
        "wikidata": "Q2640092"
      },
      "geometry": {
        "type": "Point",
        "coordinates": [
          -75.9929959,
          -11.1610111
        ]
      },
      "id": "node/286780224"
    },
    {
      "type": "Feature",
      "properties": {
        "@id": "node/286869077",
        "ele": "1630",
        "name": "La Joya",
        "place": "town"
      },
      "geometry": {
        "type": "Point",
        "coordinates": [
          -71.8178785,
          -16.4235189
        ]
      },
      "id": "node/286869077"
    },
    {
      "type": "Feature",
      "properties": {
        "@id": "node/286871171",
        "ele": "1967",
        "name": "Uchumayo",
        "place": "town"
      },
      "geometry": {
        "type": "Point",
        "coordinates": [
          -71.6727116,
          -16.4251651
        ]
      },
      "id": "node/286871171"
    },
    {
      "type": "Feature",
      "properties": {
        "@id": "node/286883342",
        "ele": "621",
        "is_in": "Peru",
        "name": "Perené",
        "place": "town",
        "population": "3000",
        "population:census:1993": "2014",
        "website": "http://muniperene.gob.pe/portal/",
        "wikidata": "Q2070443",
        "wikipedia": "es:Perené (Perú)"
      },
      "geometry": {
        "type": "Point",
        "coordinates": [
          -75.2255916,
          -10.952457
        ]
      },
      "id": "node/286883342"
    },
    {
      "type": "Feature",
      "properties": {
        "@id": "node/287228180",
        "is_in": "Peru",
        "is_in:continent": "South America",
        "is_in:country": "Peru",
        "is_in:district": "El Oro",
        "is_in:province": "Antabamba",
        "is_in:region": "Apurimac",
        "name": "Ayahuay",
        "place": "village"
      },
      "geometry": {
        "type": "Point",
        "coordinates": [
          -73.0585649,
          -14.2093284
        ]
      },
      "id": "node/287228180"
    },
    {
      "type": "Feature",
      "properties": {
        "@id": "node/287228285",
        "is_in": "Peru",
        "name": "Chalhuanca",
        "place": "town"
      },
      "geometry": {
        "type": "Point",
        "coordinates": [
          -73.2442285,
          -14.2945256
        ]
      },
      "id": "node/287228285"
    },
    {
      "type": "Feature",
      "properties": {
        "@id": "node/287231913",
        "is_in": "Peru",
        "name": "Puquio",
        "place": "town",
        "wikidata": "Q2726653"
      },
      "geometry": {
        "type": "Point",
        "coordinates": [
          -74.1236684,
          -14.6945553
        ]
      },
      "id": "node/287231913"
    },
    {
      "type": "Feature",
      "properties": {
        "@id": "node/287346439",
        "ele": "3390",
        "is_in": "Peru",
        "name": "Recuay",
        "place": "town",
        "wikidata": "Q1701738",
        "wikipedia": "en:Recuay, Peru"
      },
      "geometry": {
        "type": "Point",
        "coordinates": [
          -77.4561556,
          -9.722026
        ]
      },
      "id": "node/287346439"
    },
    {
      "type": "Feature",
      "properties": {
        "@id": "node/287347821",
        "is_in": "Peru",
        "name": "Catac",
        "place": "village",
        "wikidata": "Q1050130",
        "wikipedia": "de:Catac"
      },
      "geometry": {
        "type": "Point",
        "coordinates": [
          -77.4310848,
          -9.8017968
        ]
      },
      "id": "node/287347821"
    },
    {
      "type": "Feature",
      "properties": {
        "@id": "node/287354765",
        "is_in": "Peru",
        "name": "Paramonga",
        "place": "town"
      },
      "geometry": {
        "type": "Point",
        "coordinates": [
          -77.8185202,
          -10.6751894
        ]
      },
      "id": "node/287354765"
    },
    {
      "type": "Feature",
      "properties": {
        "@id": "node/287355649",
        "description": "Apodada La ciudad del Turismo, es una ciudad ubicada en el norte del departamento de Lima.",
        "ele": "56",
        "is_in": "Peru",
        "name": "Barranca",
        "place": "town",
        "population": "62000",
        "wikidata": "Q2582671",
        "wikipedia": "es:Barranca (Perú)"
      },
      "geometry": {
        "type": "Point",
        "coordinates": [
          -77.7609383,
          -10.7541212
        ]
      },
      "id": "node/287355649"
    },
    {
      "type": "Feature",
      "properties": {
        "@id": "node/287835242",
        "is_in": "Peru",
        "name": "Casma",
        "name:ru": "Касма",
        "place": "town",
        "wikidata": "Q3236687"
      },
      "geometry": {
        "type": "Point",
        "coordinates": [
          -78.2995738,
          -9.473361
        ]
      },
      "id": "node/287835242"
    },
    {
      "type": "Feature",
      "properties": {
        "@id": "node/287844737",
        "is_in": "Peru",
        "is_in:continent": "South America",
        "is_in:country": "Peru",
        "name": "Chimbote",
        "name:en": "Chimbote",
        "name:ru": "Чимботе",
        "name:uk": "Чімботе",
        "place": "city",
        "population": "334568",
        "wikidata": "Q518431",
        "wikipedia": "en:Chimbote"
      },
      "geometry": {
        "type": "Point",
        "coordinates": [
          -78.5900838,
          -9.0783629
        ]
      },
      "id": "node/287844737"
    },
    {
      "type": "Feature",
      "properties": {
        "@id": "node/287851085",
        "name": "Chuquicara",
        "place": "village"
      },
      "geometry": {
        "type": "Point",
        "coordinates": [
          -78.2362732,
          -8.6547659
        ]
      },
      "id": "node/287851085"
    },
    {
      "type": "Feature",
      "properties": {
        "@id": "node/287855911",
        "is_in": "Peru",
        "name": "Yuracmarca",
        "place": "village"
      },
      "geometry": {
        "type": "Point",
        "coordinates": [
          -77.9039803,
          -8.7375001
        ]
      },
      "id": "node/287855911"
    },
    {
      "type": "Feature",
      "properties": {
        "@id": "node/288398785",
        "is_in": "Peru",
        "name": "Yungay",
        "place": "town",
        "wikidata": "Q919678",
        "wikipedia": "de:Yungay (Peru)"
      },
      "geometry": {
        "type": "Point",
        "coordinates": [
          -77.7446153,
          -9.1397639
        ]
      },
      "id": "node/288398785"
    },
    {
      "type": "Feature",
      "properties": {
        "@id": "node/288399269",
        "is_in": "Peru;Ancash",
        "name": "Caraz",
        "place": "town",
        "population": "10962",
        "wikidata": "Q1035471",
        "wikipedia": "en:Caraz"
      },
      "geometry": {
        "type": "Point",
        "coordinates": [
          -77.8100284,
          -9.0486096
        ]
      },
      "id": "node/288399269"
    },
    {
      "type": "Feature",
      "properties": {
        "@id": "node/288406030",
        "is_in": "Peru",
        "name": "Virú",
        "place": "town",
        "wikidata": "Q3344843",
        "wikipedia": "es:Virú"
      },
      "geometry": {
        "type": "Point",
        "coordinates": [
          -78.7522085,
          -8.4142913
        ]
      },
      "id": "node/288406030"
    },
    {
      "type": "Feature",
      "properties": {
        "@id": "node/288517478",
        "is_in": "Peru",
        "name": "Limatambo",
        "place": "village"
      },
      "geometry": {
        "type": "Point",
        "coordinates": [
          -72.4445624,
          -13.4799292
        ]
      },
      "id": "node/288517478"
    },
    {
      "type": "Feature",
      "properties": {
        "@id": "node/288556691",
        "ele": "3887",
        "name": "Juli",
        "place": "town"
      },
      "geometry": {
        "type": "Point",
        "coordinates": [
          -69.4591568,
          -16.2132873
        ]
      },
      "id": "node/288556691"
    },
    {
      "type": "Feature",
      "properties": {
        "@id": "node/288563196",
        "ele": "3831",
        "is_in:country": "Peru",
        "name": "Desaguadero",
        "name:ru": "Десагуадеро",
        "place": "town",
        "wikidata": "Q3825232",
        "wikipedia": "es:Distrito de Desaguadero"
      },
      "geometry": {
        "type": "Point",
        "coordinates": [
          -69.0401545,
          -16.564809
        ]
      },
      "id": "node/288563196"
    },
    {
      "type": "Feature",
      "properties": {
        "@id": "node/288565877",
        "name": "Yunguyo",
        "place": "town"
      },
      "geometry": {
        "type": "Point",
        "coordinates": [
          -69.0925538,
          -16.2442325
        ]
      },
      "id": "node/288565877"
    },
    {
      "type": "Feature",
      "properties": {
        "@id": "node/288674667",
        "name": "Conima",
        "place": "village"
      },
      "geometry": {
        "type": "Point",
        "coordinates": [
          -69.4380307,
          -15.4576993
        ]
      },
      "id": "node/288674667"
    },
    {
      "type": "Feature",
      "properties": {
        "@id": "node/288675656",
        "is_in": "Peru",
        "name": "Moho",
        "place": "town"
      },
      "geometry": {
        "type": "Point",
        "coordinates": [
          -69.4998358,
          -15.3607727
        ]
      },
      "id": "node/288675656"
    },
    {
      "type": "Feature",
      "properties": {
        "@id": "node/288677942",
        "is_in": "Peru, Puno",
        "name": "Lampa",
        "place": "town",
        "source": "bing; MTC"
      },
      "geometry": {
        "type": "Point",
        "coordinates": [
          -70.3666168,
          -15.3644309
        ]
      },
      "id": "node/288677942"
    },
    {
      "type": "Feature",
      "properties": {
        "@id": "node/288680788",
        "is_in": "Puno, Peru",
        "name": "Taraco",
        "place": "village"
      },
      "geometry": {
        "type": "Point",
        "coordinates": [
          -69.9785695,
          -15.299489
        ]
      },
      "id": "node/288680788"
    },
    {
      "type": "Feature",
      "properties": {
        "@id": "node/288682279",
        "is_in": "Peru, Puno",
        "name": "Huancané",
        "place": "town"
      },
      "geometry": {
        "type": "Point",
        "coordinates": [
          -69.7613717,
          -15.2040929
        ]
      },
      "id": "node/288682279"
    },
    {
      "type": "Feature",
      "properties": {
        "@id": "node/289380015",
        "name": "Chancay",
        "name:ru": "Чанкай",
        "place": "town",
        "wikidata": "Q11168982"
      },
      "geometry": {
        "type": "Point",
        "coordinates": [
          -77.2699958,
          -11.5627697
        ]
      },
      "id": "node/289380015"
    },
    {
      "type": "Feature",
      "properties": {
        "@id": "node/290011342",
        "is_in:continent": "South America",
        "is_in:country": "Peru",
        "name": "Bambamarca",
        "place": "town",
        "wikidata": "Q3348274",
        "wikipedia": "es:Bambamarca"
      },
      "geometry": {
        "type": "Point",
        "coordinates": [
          -78.5201491,
          -6.68221
        ]
      },
      "id": "node/290011342"
    },
    {
      "type": "Feature",
      "properties": {
        "@id": "node/290011452",
        "is_in:continent": "South America",
        "is_in:country": "Peru",
        "name": "Chota",
        "place": "town",
        "wikidata": "Q2964558",
        "wikipedia": "es:Chota",
        "wikipedia:en": "Chota,_Peru"
      },
      "geometry": {
        "type": "Point",
        "coordinates": [
          -78.6509551,
          -6.5614846
        ]
      },
      "id": "node/290011452"
    },
    {
      "type": "Feature",
      "properties": {
        "@id": "node/290012144",
        "is_in:continent": "South America",
        "is_in:country": "Peru",
        "name": "Hualgayoc",
        "place": "village"
      },
      "geometry": {
        "type": "Point",
        "coordinates": [
          -78.6096155,
          -6.7683402
        ]
      },
      "id": "node/290012144"
    },
    {
      "type": "Feature",
      "properties": {
        "@id": "node/290013122",
        "alt_name": "Florida",
        "ele": "2245",
        "name": "Pomacochas",
        "place": "village"
      },
      "geometry": {
        "type": "Point",
        "coordinates": [
          -77.9691875,
          -5.8262269
        ]
      },
      "id": "node/290013122"
    },
    {
      "type": "Feature",
      "properties": {
        "@id": "node/292250901",
        "name": "Paucartambo",
        "place": "town",
        "source": "bing; MTC"
      },
      "geometry": {
        "type": "Point",
        "coordinates": [
          -71.5959691,
          -13.3176052
        ]
      },
      "id": "node/292250901"
    },
    {
      "type": "Feature",
      "properties": {
        "@id": "node/292909409",
        "name": "Tembladera",
        "place": "village",
        "population": "3870",
        "wikidata": "Q13190929",
        "wikipedia": "es:Tembladera (Perú)"
      },
      "geometry": {
        "type": "Point",
        "coordinates": [
          -79.1307899,
          -7.2531814
        ]
      },
      "id": "node/292909409"
    },
    {
      "type": "Feature",
      "properties": {
        "@id": "node/292915738",
        "is_in:continent": "South America",
        "is_in:country": "Peru",
        "name": "Cutervo",
        "place": "town",
        "population": "53075",
        "wikidata": "Q5196752",
        "wikipedia": "es:Distrito de Cutervo",
        "wikipedia:en": "Cutervo District"
      },
      "geometry": {
        "type": "Point",
        "coordinates": [
          -78.8157238,
          -6.3790362
        ]
      },
      "id": "node/292915738"
    },
    {
      "type": "Feature",
      "properties": {
        "@id": "node/304296640",
        "is_in": "Peru",
        "is_in:continent": "South America",
        "is_in:country": "Peru",
        "name": "Sullana",
        "place": "city",
        "wikidata": "Q510413",
        "wikipedia": "es:Sullana"
      },
      "geometry": {
        "type": "Point",
        "coordinates": [
          -80.6873604,
          -4.8900643
        ]
      },
      "id": "node/304296640"
    },
    {
      "type": "Feature",
      "properties": {
        "@id": "node/316075315",
        "is_in": "Peru",
        "name": "Imata",
        "place": "village"
      },
      "geometry": {
        "type": "Point",
        "coordinates": [
          -71.0912393,
          -15.8380565
        ]
      },
      "id": "node/316075315"
    },
    {
      "type": "Feature",
      "properties": {
        "@id": "node/316086202",
        "ele": "3981",
        "name": "Mazo Cruz",
        "place": "village"
      },
      "geometry": {
        "type": "Point",
        "coordinates": [
          -69.7163094,
          -16.7417938
        ]
      },
      "id": "node/316086202"
    },
    {
      "type": "Feature",
      "properties": {
        "@id": "node/316181077",
        "ele": "2600",
        "is_in": "Peru",
        "name": "Carhuaz",
        "place": "town",
        "population": "10900",
        "wikidata": "Q1036082",
        "wikipedia": "en:Carhuaz"
      },
      "geometry": {
        "type": "Point",
        "coordinates": [
          -77.646261,
          -9.2817496
        ]
      },
      "id": "node/316181077"
    },
    {
      "type": "Feature",
      "properties": {
        "@id": "node/316253267",
        "is_in": "Peru",
        "name": "Huallanca",
        "place": "village"
      },
      "geometry": {
        "type": "Point",
        "coordinates": [
          -76.94166,
          -9.8993086
        ]
      },
      "id": "node/316253267"
    },
    {
      "type": "Feature",
      "properties": {
        "@id": "node/317313675",
        "name": "Huampica",
        "place": "village"
      },
      "geometry": {
        "type": "Point",
        "coordinates": [
          -73.4372477,
          -13.5076554
        ]
      },
      "id": "node/317313675"
    },
    {
      "type": "Feature",
      "properties": {
        "@id": "node/317313788",
        "name": "Concepcion Tocsama",
        "place": "village"
      },
      "geometry": {
        "type": "Point",
        "coordinates": [
          -73.4057438,
          -13.5465304
        ]
      },
      "id": "node/317313788"
    },
    {
      "type": "Feature",
      "properties": {
        "@id": "node/318808656",
        "name": "Pucusana",
        "place": "village"
      },
      "geometry": {
        "type": "Point",
        "coordinates": [
          -76.7974527,
          -12.4820916
        ]
      },
      "id": "node/318808656"
    },
    {
      "type": "Feature",
      "properties": {
        "@id": "node/318808657",
        "name": "Naplo",
        "place": "village"
      },
      "geometry": {
        "type": "Point",
        "coordinates": [
          -76.7911467,
          -12.4801565
        ]
      },
      "id": "node/318808657"
    },
    {
      "type": "Feature",
      "properties": {
        "@id": "node/318808658",
        "name": "San Bartolo",
        "place": "village"
      },
      "geometry": {
        "type": "Point",
        "coordinates": [
          -76.777945,
          -12.3870713
        ]
      },
      "id": "node/318808658"
    },
    {
      "type": "Feature",
      "properties": {
        "@id": "node/320030135",
        "is_in": "Piura, Peru",
        "name": "Chulucanas",
        "name:ru": "Чулуканас",
        "place": "town",
        "wikidata": "Q1089449",
        "wikipedia": "es:Chulucanas"
      },
      "geometry": {
        "type": "Point",
        "coordinates": [
          -80.1609229,
          -5.0965065
        ]
      },
      "id": "node/320030135"
    },
    {
      "type": "Feature",
      "properties": {
        "@id": "node/320034016",
        "name": "Ferreñafe",
        "place": "town",
        "website": "http://www.muniferrenafe.gob.pe",
        "wikidata": "Q2143690",
        "wikipedia": "en:Ferreñafe"
      },
      "geometry": {
        "type": "Point",
        "coordinates": [
          -79.7879824,
          -6.6392169
        ]
      },
      "id": "node/320034016"
    },
    {
      "type": "Feature",
      "properties": {
        "@id": "node/320100077",
        "name": "Chiclayo",
        "name:de": "Chiclayo",
        "name:en": "Chiclayo",
        "name:es": "Chiclayo",
        "name:pl": "Chiclayo",
        "name:ru": "Чиклайо",
        "name:uk": "Чіклайо",
        "old_name": "Santa María de los Valles de Chiclayo",
        "place": "city",
        "population": "524442",
        "wikidata": "Q260911",
        "wikipedia": "es:Chiclayo",
        "wikipedia:en": "Chiclayo"
      },
      "geometry": {
        "type": "Point",
        "coordinates": [
          -79.8408308,
          -6.766417
        ]
      },
      "id": "node/320100077"
    },
    {
      "type": "Feature",
      "properties": {
        "@id": "node/320109749",
        "is_in": "Piura, Peru",
        "name": "Catacaos",
        "name:es": "Distrito de Catacaos",
        "place": "town",
        "wikidata": "Q3312424",
        "wikipedia": "es:Catacaos"
      },
      "geometry": {
        "type": "Point",
        "coordinates": [
          -80.6760774,
          -5.2654817
        ]
      },
      "id": "node/320109749"
    },
    {
      "type": "Feature",
      "properties": {
        "@id": "node/320112033",
        "is_in": "La Libertad, Peru",
        "name": "Pacasmayo",
        "name:en": "Pacasmayo",
        "name:ru": "Пакасмайо",
        "name:uk": "Пакасмайо",
        "place": "town",
        "wikidata": "Q1279608"
      },
      "geometry": {
        "type": "Point",
        "coordinates": [
          -79.5684847,
          -7.4028958
        ]
      },
      "id": "node/320112033"
    },
    {
      "type": "Feature",
      "properties": {
        "@id": "node/320115335",
        "name": "Chocope",
        "place": "town",
        "population": "4910",
        "wikidata": "Q5103685",
        "wikipedia": "es:Chocope",
        "wikipedia:en": "Chocope"
      },
      "geometry": {
        "type": "Point",
        "coordinates": [
          -79.2226569,
          -7.7918461
        ]
      },
      "id": "node/320115335"
    },
    {
      "type": "Feature",
      "properties": {
        "@id": "node/334651528",
        "is_in": "La Libertad, Peru",
        "name": "Laredo",
        "place": "town"
      },
      "geometry": {
        "type": "Point",
        "coordinates": [
          -78.9493809,
          -8.0848081
        ]
      },
      "id": "node/334651528"
    },
    {
      "type": "Feature",
      "properties": {
        "@id": "node/338535898",
        "addr:postcode": "20851",
        "name": "Mancora",
        "place": "town",
        "population": "10128",
        "wikidata": "Q529807",
        "wikipedia": "es:Máncora",
        "wikipedia:de": "Máncora",
        "wikipedia:en": "Máncora",
        "wikipedia:fr": "Máncora_(ville)",
        "wikipedia:it": "Máncora",
        "wikipedia:qu": "Máncora"
      },
      "geometry": {
        "type": "Point",
        "coordinates": [
          -81.0481341,
          -4.1030531
        ]
      },
      "id": "node/338535898"
    },
    {
      "type": "Feature",
      "properties": {
        "@id": "node/338539511",
        "capital": "4",
        "name": "Tumbes",
        "name:de": "Tumbes",
        "name:en": "Tumbes",
        "name:es": "Tumbes",
        "name:pl": "Tumbes",
        "name:ru": "Тумбес",
        "name:uk": "Тумбес",
        "place": "town",
        "population": "91365",
        "wikidata": "Q827640",
        "wikipedia": "es:Tumbes"
      },
      "geometry": {
        "type": "Point",
        "coordinates": [
          -80.4596454,
          -3.5707875
        ]
      },
      "id": "node/338539511"
    },
    {
      "type": "Feature",
      "properties": {
        "@id": "node/340125505",
        "name": "Bagua Grande",
        "place": "town",
        "population": "47336",
        "website": "http://www.muniutcubamba.gob.pe/",
        "wikidata": "Q793765",
        "wikipedia": "es:Bagua Grande",
        "wikipedia:en": "Bagua Grande"
      },
      "geometry": {
        "type": "Point",
        "coordinates": [
          -78.4421686,
          -5.754216
        ]
      },
      "id": "node/340125505"
    },
    {
      "type": "Feature",
      "properties": {
        "@id": "node/340140307",
        "name": "Chachapoyas",
        "name:de": "Chachapoyas",
        "name:en": "Chachapoyas",
        "name:es": "Chachapoyas",
        "name:pl": "Chachapoyas",
        "name:ru": "Чачапояс",
        "name:uk": "Чачапояс",
        "place": "city",
        "population": "21142",
        "wikidata": "Q757133",
        "wikipedia": "es:Chachapoyas (Perú)"
      },
      "geometry": {
        "type": "Point",
        "coordinates": [
          -77.8714631,
          -6.2293182
        ]
      },
      "id": "node/340140307"
    },
    {
      "type": "Feature",
      "properties": {
        "@id": "node/346472191",
        "name": "Huanta",
        "name:ru": "Уанта",
        "place": "town",
        "wikidata": "Q2158344"
      },
      "geometry": {
        "type": "Point",
        "coordinates": [
          -74.2479531,
          -12.9398882
        ]
      },
      "id": "node/346472191"
    },
    {
      "type": "Feature",
      "properties": {
        "@id": "node/347387631",
        "name": "Lambayeque",
        "place": "town",
        "wikipedia": "es:Lambayeque, Peru"
      },
      "geometry": {
        "type": "Point",
        "coordinates": [
          -79.9065086,
          -6.703027
        ]
      },
      "id": "node/347387631"
    },
    {
      "type": "Feature",
      "properties": {
        "@id": "node/347387925",
        "name": "Mochumí",
        "place": "village",
        "wikidata": "Q27194530",
        "wikipedia": "es:Mochumí"
      },
      "geometry": {
        "type": "Point",
        "coordinates": [
          -79.8645893,
          -6.5474461
        ]
      },
      "id": "node/347387925"
    },
    {
      "type": "Feature",
      "properties": {
        "@id": "node/347388825",
        "is_in": "Lambayeque, Peru",
        "name": "Batán Grande",
        "place": "village"
      },
      "geometry": {
        "type": "Point",
        "coordinates": [
          -79.6524498,
          -6.4839012
        ]
      },
      "id": "node/347388825"
    },
    {
      "type": "Feature",
      "properties": {
        "@id": "node/352704212",
        "name": "Yuracmayo",
        "place": "village"
      },
      "geometry": {
        "type": "Point",
        "coordinates": [
          -76.1587975,
          -11.8374713
        ]
      },
      "id": "node/352704212"
    },
    {
      "type": "Feature",
      "properties": {
        "@id": "node/352704685",
        "name": "Suitucancha",
        "place": "village"
      },
      "geometry": {
        "type": "Point",
        "coordinates": [
          -75.9370765,
          -11.7879517
        ]
      },
      "id": "node/352704685"
    },
    {
      "type": "Feature",
      "properties": {
        "@id": "node/352705483",
        "name": "Tanta",
        "place": "village"
      },
      "geometry": {
        "type": "Point",
        "coordinates": [
          -76.0135887,
          -12.122403
        ]
      },
      "id": "node/352705483"
    },
    {
      "type": "Feature",
      "properties": {
        "@id": "node/352705920",
        "name": "Santiago de Anchucaya",
        "place": "village"
      },
      "geometry": {
        "type": "Point",
        "coordinates": [
          -76.2302171,
          -12.0955007
        ]
      },
      "id": "node/352705920"
    },
    {
      "type": "Feature",
      "properties": {
        "@id": "node/352708723",
        "name": "Huancaya",
        "place": "village"
      },
      "geometry": {
        "type": "Point",
        "coordinates": [
          -75.7993144,
          -12.2033688
        ]
      },
      "id": "node/352708723"
    },
    {
      "type": "Feature",
      "properties": {
        "@id": "node/352711315",
        "name": "Yauyos",
        "place": "village"
      },
      "geometry": {
        "type": "Point",
        "coordinates": [
          -75.9187003,
          -12.4596576
        ]
      },
      "id": "node/352711315"
    },
    {
      "type": "Feature",
      "properties": {
        "@id": "node/352711967",
        "name": "Huantán",
        "place": "village"
      },
      "geometry": {
        "type": "Point",
        "coordinates": [
          -75.8115551,
          -12.4562776
        ]
      },
      "id": "node/352711967"
    },
    {
      "type": "Feature",
      "properties": {
        "@id": "node/352712164",
        "name": "Laraos",
        "place": "village"
      },
      "geometry": {
        "type": "Point",
        "coordinates": [
          -75.7855704,
          -12.3468207
        ]
      },
      "id": "node/352712164"
    },
    {
      "type": "Feature",
      "properties": {
        "@id": "node/367689209",
        "is_in": "Peru",
        "name": "Cabana",
        "place": "village"
      },
      "geometry": {
        "type": "Point",
        "coordinates": [
          -78.0090747,
          -8.3929196
        ]
      },
      "id": "node/367689209"
    },
    {
      "type": "Feature",
      "properties": {
        "@id": "node/384922562",
        "ele": "490",
        "name": "Lunahuaná",
        "name:es": "Lunahuaná",
        "place": "village"
      },
      "geometry": {
        "type": "Point",
        "coordinates": [
          -76.1408756,
          -12.9624782
        ]
      },
      "id": "node/384922562"
    },
    {
      "type": "Feature",
      "properties": {
        "@id": "node/384942308",
        "ele": "110",
        "name": "Chincha Alta",
        "name:ru": "Чинча-Альта",
        "place": "town",
        "wikidata": "Q990685"
      },
      "geometry": {
        "type": "Point",
        "coordinates": [
          -76.1295524,
          -13.4158809
        ]
      },
      "id": "node/384942308"
    },
    {
      "type": "Feature",
      "properties": {
        "@id": "node/388564683",
        "ele": "2750",
        "name": "Huaytará",
        "place": "village",
        "wikidata": "Q3344099",
        "wikipedia": "es:Huaytará"
      },
      "geometry": {
        "type": "Point",
        "coordinates": [
          -75.3531892,
          -13.6044057
        ]
      },
      "id": "node/388564683"
    },
    {
      "type": "Feature",
      "properties": {
        "@id": "node/389531512",
        "name": "San Pedro de Lloc",
        "place": "town"
      },
      "geometry": {
        "type": "Point",
        "coordinates": [
          -79.5032823,
          -7.4246919
        ]
      },
      "id": "node/389531512"
    },
    {
      "type": "Feature",
      "properties": {
        "@id": "node/391530025",
        "name": "Imperial",
        "place": "town"
      },
      "geometry": {
        "type": "Point",
        "coordinates": [
          -76.3529189,
          -13.0610276
        ]
      },
      "id": "node/391530025"
    },
    {
      "type": "Feature",
      "properties": {
        "@id": "node/391530046",
        "ele": "40",
        "name": "San Vicente de Cañete",
        "place": "town",
        "wikidata": "Q1853969",
        "wikipedia": "es:San Vicente de Cañete"
      },
      "geometry": {
        "type": "Point",
        "coordinates": [
          -76.3874117,
          -13.0777388
        ]
      },
      "id": "node/391530046"
    },
    {
      "type": "Feature",
      "properties": {
        "@id": "node/392920750",
        "name": "Vilcas Huaman",
        "name:lt": "Vilcas Huaman",
        "name:ru": "Вилькасуаман",
        "place": "town",
        "wikidata": "Q2475760",
        "wikipedia": "es:Vilcashuamán"
      },
      "geometry": {
        "type": "Point",
        "coordinates": [
          -73.9538138,
          -13.6531247
        ]
      },
      "id": "node/392920750"
    },
    {
      "type": "Feature",
      "properties": {
        "@id": "node/401370806",
        "is_in": "Loreto",
        "name": "Zungarococha",
        "place": "village"
      },
      "geometry": {
        "type": "Point",
        "coordinates": [
          -73.3536588,
          -3.8286388
        ]
      },
      "id": "node/401370806"
    },
    {
      "type": "Feature",
      "properties": {
        "@id": "node/401371399",
        "is_in": "Loreto",
        "name": "Nina Rumi",
        "place": "village"
      },
      "geometry": {
        "type": "Point",
        "coordinates": [
          -73.3871756,
          -3.8437968
        ]
      },
      "id": "node/401371399"
    },
    {
      "type": "Feature",
      "properties": {
        "@id": "node/401886381",
        "is_in": "Loreto",
        "name": "Santa Clara",
        "place": "village"
      },
      "geometry": {
        "type": "Point",
        "coordinates": [
          -73.3389734,
          -3.7836414
        ]
      },
      "id": "node/401886381"
    },
    {
      "type": "Feature",
      "properties": {
        "@id": "node/401890959",
        "is_in": "Loreto",
        "name": "Indiana",
        "place": "town",
        "source": "http://geoportal.regionloreto.gob.pe"
      },
      "geometry": {
        "type": "Point",
        "coordinates": [
          -73.0439406,
          -3.4999226
        ]
      },
      "id": "node/401890959"
    },
    {
      "type": "Feature",
      "properties": {
        "@id": "node/401890974",
        "is_in": "Loreto",
        "name": "Mazan",
        "place": "town",
        "source": "http://geoportal.regionloreto.gob.pe"
      },
      "geometry": {
        "type": "Point",
        "coordinates": [
          -73.0894632,
          -3.4976682
        ]
      },
      "id": "node/401890974"
    },
    {
      "type": "Feature",
      "properties": {
        "@id": "node/401891213",
        "is_in": "Loreto",
        "name": "Padre Cocha",
        "place": "village"
      },
      "geometry": {
        "type": "Point",
        "coordinates": [
          -73.2779474,
          -3.6993152
        ]
      },
      "id": "node/401891213"
    },
    {
      "type": "Feature",
      "properties": {
        "@id": "node/401909952",
        "is_in": "Loreto",
        "name": "Quistococha",
        "place": "village"
      },
      "geometry": {
        "type": "Point",
        "coordinates": [
          -73.3258925,
          -3.8231618
        ]
      },
      "id": "node/401909952"
    },
    {
      "type": "Feature",
      "properties": {
        "@id": "node/401914237",
        "is_in": "Loreto",
        "name": "Santo Tomas",
        "place": "village"
      },
      "geometry": {
        "type": "Point",
        "coordinates": [
          -73.3408142,
          -3.8046618
        ]
      },
      "id": "node/401914237"
    },
    {
      "type": "Feature",
      "properties": {
        "@id": "node/401920748",
        "name": "Rumococha",
        "place": "village"
      },
      "geometry": {
        "type": "Point",
        "coordinates": [
          -73.3149798,
          -3.7787658
        ]
      },
      "id": "node/401920748"
    },
    {
      "type": "Feature",
      "properties": {
        "@id": "node/402059078",
        "is_in": "Loreto",
        "name": "Manacamiri",
        "place": "village"
      },
      "geometry": {
        "type": "Point",
        "coordinates": [
          -73.2837045,
          -3.7182701
        ]
      },
      "id": "node/402059078"
    },
    {
      "type": "Feature",
      "properties": {
        "@id": "node/402061849",
        "is_in": "Loreto",
        "name": "Puerto Almendra",
        "place": "village"
      },
      "geometry": {
        "type": "Point",
        "coordinates": [
          -73.3759213,
          -3.8289396
        ]
      },
      "id": "node/402061849"
    },
    {
      "type": "Feature",
      "properties": {
        "@id": "node/402065469",
        "is_in": "Loreto",
        "name": "Los Delfines",
        "place": "village"
      },
      "geometry": {
        "type": "Point",
        "coordinates": [
          -73.3386708,
          -3.8465811
        ]
      },
      "id": "node/402065469"
    },
    {
      "type": "Feature",
      "properties": {
        "@id": "node/409483023",
        "name": "Andahuaylillas",
        "place": "village"
      },
      "geometry": {
        "type": "Point",
        "coordinates": [
          -71.6776479,
          -13.6739086
        ]
      },
      "id": "node/409483023"
    },
    {
      "type": "Feature",
      "properties": {
        "@id": "node/409705339",
        "name": "Talara",
        "name:ru": "Талара",
        "name:uk": "Талара",
        "place": "town",
        "population": "84978",
        "website": "http://www.munitalara.gob.pe/",
        "wikidata": "Q723584"
      },
      "geometry": {
        "type": "Point",
        "coordinates": [
          -81.2718335,
          -4.5796872
        ]
      },
      "id": "node/409705339"
    },
    {
      "type": "Feature",
      "properties": {
        "@id": "node/409710776",
        "is_in": "Loreto",
        "name": "Puerto Alegria",
        "place": "village"
      },
      "geometry": {
        "type": "Point",
        "coordinates": [
          -73.298851,
          -3.828191
        ]
      },
      "id": "node/409710776"
    },
    {
      "type": "Feature",
      "properties": {
        "@id": "node/410204788",
        "is_in": "Loreto",
        "name": "Santa Rita",
        "place": "village"
      },
      "geometry": {
        "type": "Point",
        "coordinates": [
          -73.3235818,
          -3.7317215
        ]
      },
      "id": "node/410204788"
    },
    {
      "type": "Feature",
      "properties": {
        "@id": "node/410206433",
        "is_in": "Loreto",
        "name": "San Jose de Lupuna",
        "place": "village"
      },
      "geometry": {
        "type": "Point",
        "coordinates": [
          -73.325176,
          -3.7438322
        ]
      },
      "id": "node/410206433"
    },
    {
      "type": "Feature",
      "properties": {
        "@id": "node/410332591",
        "is_in": "Loreto",
        "name": "Tamshiyacu",
        "place": "village"
      },
      "geometry": {
        "type": "Point",
        "coordinates": [
          -73.1585479,
          -4.0032955
        ]
      },
      "id": "node/410332591"
    },
    {
      "type": "Feature",
      "properties": {
        "@id": "node/410334587",
        "is_in": "Loreto",
        "name": "Llanchama",
        "place": "village"
      },
      "geometry": {
        "type": "Point",
        "coordinates": [
          -73.4093452,
          -3.8580691
        ]
      },
      "id": "node/410334587"
    },
    {
      "type": "Feature",
      "properties": {
        "@id": "node/410366085",
        "is_in": "Loreto",
        "is_in:country": "Peru",
        "name": "Intuto",
        "place": "village"
      },
      "geometry": {
        "type": "Point",
        "coordinates": [
          -74.7811192,
          -3.4900967
        ]
      },
      "id": "node/410366085"
    },
    {
      "type": "Feature",
      "properties": {
        "@id": "node/410394412",
        "is_in": "Loreto",
        "name": "Barrio Florida",
        "place": "village"
      },
      "geometry": {
        "type": "Point",
        "coordinates": [
          -73.210544,
          -3.6379034
        ]
      },
      "id": "node/410394412"
    },
    {
      "type": "Feature",
      "properties": {
        "@id": "node/411804006",
        "is_in": "San Martin",
        "name": "Rioja",
        "name:es": "Rioja",
        "place": "town",
        "population": "24263",
        "start_date": "1782",
        "wikidata": "Q3344069",
        "wikipedia": "es:Rioja (Perú)"
      },
      "geometry": {
        "type": "Point",
        "coordinates": [
          -77.1677322,
          -6.0627128
        ]
      },
      "id": "node/411804006"
    },
    {
      "type": "Feature",
      "properties": {
        "@id": "node/411804007",
        "ele": "360",
        "name": "Moyobamba",
        "name:de": "Moyobamba",
        "name:en": "Moyobamba",
        "name:es": "Moyobamba",
        "name:pl": "Moyobamba",
        "name:ru": "Мойобамба",
        "name:uk": "Мойобамба",
        "place": "city",
        "population": "120000",
        "website": "http://www.munimoyobamba.gob.pe",
        "wikidata": "Q285672",
        "wikipedia": "es:Moyobamba"
      },
      "geometry": {
        "type": "Point",
        "coordinates": [
          -76.9746773,
          -6.0347302
        ]
      },
      "id": "node/411804007"
    },
    {
      "type": "Feature",
      "properties": {
        "@id": "node/411805546",
        "is_in": "San Martin",
        "name": "Pueblo Libre",
        "place": "town"
      },
      "geometry": {
        "type": "Point",
        "coordinates": [
          -77.1215914,
          -5.8756132
        ]
      },
      "id": "node/411805546"
    },
    {
      "type": "Feature",
      "properties": {
        "@id": "node/411805820",
        "is_in": "San Martin",
        "name": "Yantalo",
        "place": "village"
      },
      "geometry": {
        "type": "Point",
        "coordinates": [
          -77.019882,
          -5.9753278
        ]
      },
      "id": "node/411805820"
    },
    {
      "type": "Feature",
      "properties": {
        "@id": "node/411805891",
        "is_in": "San Martin",
        "name": "Calzada",
        "place": "town"
      },
      "geometry": {
        "type": "Point",
        "coordinates": [
          -77.0650289,
          -6.0316653
        ]
      },
      "id": "node/411805891"
    },
    {
      "type": "Feature",
      "properties": {
        "@id": "node/411805960",
        "name": "Jepelacio",
        "place": "town"
      },
      "geometry": {
        "type": "Point",
        "coordinates": [
          -76.9150054,
          -6.108003
        ]
      },
      "id": "node/411805960"
    },
    {
      "type": "Feature",
      "properties": {
        "@id": "node/411806194",
        "is_in": "San Martin",
        "name": "Nueva Cajamarca",
        "place": "town"
      },
      "geometry": {
        "type": "Point",
        "coordinates": [
          -77.3067281,
          -5.9418639
        ]
      },
      "id": "node/411806194"
    },
    {
      "type": "Feature",
      "properties": {
        "@id": "node/411806218",
        "is_in": "San Martin",
        "name": "Segunda Jerusalen",
        "place": "town"
      },
      "geometry": {
        "type": "Point",
        "coordinates": [
          -77.2780457,
          -5.9879633
        ]
      },
      "id": "node/411806218"
    },
    {
      "type": "Feature",
      "properties": {
        "@id": "node/411812204",
        "is_in": "San Martin",
        "name": "Soritor",
        "place": "town"
      },
      "geometry": {
        "type": "Point",
        "coordinates": [
          -77.1021623,
          -6.1392924
        ]
      },
      "id": "node/411812204"
    },
    {
      "type": "Feature",
      "properties": {
        "@id": "node/415164645",
        "name": "Oyara",
        "place": "village"
      },
      "geometry": {
        "type": "Point",
        "coordinates": [
          -72.8326946,
          -13.0362566
        ]
      },
      "id": "node/415164645"
    },
    {
      "type": "Feature",
      "properties": {
        "@id": "node/415164649",
        "name": "Pispitayoc",
        "place": "village"
      },
      "geometry": {
        "type": "Point",
        "coordinates": [
          -72.6013157,
          -12.7756991
        ]
      },
      "id": "node/415164649"
    },
    {
      "type": "Feature",
      "properties": {
        "@id": "node/415164651",
        "name": "Sajiruyoc",
        "place": "village"
      },
      "geometry": {
        "type": "Point",
        "coordinates": [
          -72.5437734,
          -12.7280023
        ]
      },
      "id": "node/415164651"
    },
    {
      "type": "Feature",
      "properties": {
        "@id": "node/415166320",
        "alt_name": "Vilcabamba Viejo",
        "name": "Espíritu Pampa",
        "place": "village"
      },
      "geometry": {
        "type": "Point",
        "coordinates": [
          -73.1963522,
          -12.9034066
        ]
      },
      "id": "node/415166320"
    },
    {
      "type": "Feature",
      "properties": {
        "@id": "node/415166323",
        "name": "Simiato",
        "place": "village"
      },
      "geometry": {
        "type": "Point",
        "coordinates": [
          -73.1154214,
          -12.7231402
        ]
      },
      "id": "node/415166323"
    },
    {
      "type": "Feature",
      "properties": {
        "@id": "node/415166324",
        "name": "Selva Allegre",
        "place": "village"
      },
      "geometry": {
        "type": "Point",
        "coordinates": [
          -73.0898949,
          -12.6911463
        ]
      },
      "id": "node/415166324"
    },
    {
      "type": "Feature",
      "properties": {
        "@id": "node/415166325",
        "name": "Cirialo",
        "place": "village"
      },
      "geometry": {
        "type": "Point",
        "coordinates": [
          -72.9310659,
          -12.6433533
        ]
      },
      "id": "node/415166325"
    },
    {
      "type": "Feature",
      "properties": {
        "@id": "node/415166326",
        "name": "Palosontuyoc",
        "place": "village"
      },
      "geometry": {
        "type": "Point",
        "coordinates": [
          -72.8095735,
          -12.6170589
        ]
      },
      "id": "node/415166326"
    },
    {
      "type": "Feature",
      "properties": {
        "@id": "node/415166327",
        "name": "Yomentoato",
        "place": "village"
      },
      "geometry": {
        "type": "Point",
        "coordinates": [
          -72.7757492,
          -12.6037414
        ]
      },
      "id": "node/415166327"
    },
    {
      "type": "Feature",
      "properties": {
        "@id": "node/415166328",
        "name": "Sanganato",
        "place": "village"
      },
      "geometry": {
        "type": "Point",
        "coordinates": [
          -72.7320925,
          -12.6002967
        ]
      },
      "id": "node/415166328"
    },
    {
      "type": "Feature",
      "properties": {
        "@id": "node/415166329",
        "name": "Palma Real",
        "place": "village"
      },
      "geometry": {
        "type": "Point",
        "coordinates": [
          -72.6935376,
          -12.6275931
        ]
      },
      "id": "node/415166329"
    },
    {
      "type": "Feature",
      "properties": {
        "@id": "node/415166331",
        "ele": "1196",
        "name": "Santa María",
        "place": "village"
      },
      "geometry": {
        "type": "Point",
        "coordinates": [
          -72.6341973,
          -13.0068445
        ]
      },
      "id": "node/415166331"
    },
    {
      "type": "Feature",
      "properties": {
        "@id": "node/415166332",
        "name": "Huayopata",
        "place": "village"
      },
      "geometry": {
        "type": "Point",
        "coordinates": [
          -72.5350317,
          -12.9967612
        ]
      },
      "id": "node/415166332"
    },
    {
      "type": "Feature",
      "properties": {
        "@id": "node/415166333",
        "name": "Amaybamba",
        "place": "village"
      },
      "geometry": {
        "type": "Point",
        "coordinates": [
          -72.516028,
          -13.0031619
        ]
      },
      "id": "node/415166333"
    },
    {
      "type": "Feature",
      "properties": {
        "@id": "node/415166334",
        "name": "Huamanmarka",
        "place": "village"
      },
      "geometry": {
        "type": "Point",
        "coordinates": [
          -72.4958215,
          -13.0199156
        ]
      },
      "id": "node/415166334"
    },
    {
      "type": "Feature",
      "properties": {
        "@id": "node/415166335",
        "name": "Inkatambo",
        "place": "village"
      },
      "geometry": {
        "type": "Point",
        "coordinates": [
          -72.4462286,
          -13.0511336
        ]
      },
      "id": "node/415166335"
    },
    {
      "type": "Feature",
      "properties": {
        "@id": "node/415166336",
        "name": "Alfamayo",
        "place": "village"
      },
      "geometry": {
        "type": "Point",
        "coordinates": [
          -72.4053674,
          -13.0649459
        ]
      },
      "id": "node/415166336"
    },
    {
      "type": "Feature",
      "properties": {
        "@id": "node/415166337",
        "ele": "3002",
        "name": "San Luis",
        "place": "village"
      },
      "geometry": {
        "type": "Point",
        "coordinates": [
          -72.3901923,
          -13.0787108
        ]
      },
      "id": "node/415166337"
    },
    {
      "type": "Feature",
      "properties": {
        "@id": "node/415166338",
        "name": "Carrizales",
        "place": "village"
      },
      "geometry": {
        "type": "Point",
        "coordinates": [
          -72.3889777,
          -13.0908494
        ]
      },
      "id": "node/415166338"
    },
    {
      "type": "Feature",
      "properties": {
        "@id": "node/415166339",
        "name": "Phiry",
        "place": "village"
      },
      "geometry": {
        "type": "Point",
        "coordinates": [
          -72.2992588,
          -13.2315826
        ]
      },
      "id": "node/415166339"
    },
    {
      "type": "Feature",
      "properties": {
        "@id": "node/420786661",
        "name": "Chaullay",
        "place": "village"
      },
      "geometry": {
        "type": "Point",
        "coordinates": [
          -72.6463198,
          -13.0061801
        ]
      },
      "id": "node/420786661"
    },
    {
      "type": "Feature",
      "properties": {
        "@id": "node/420839469",
        "name": "Huancacalle",
        "place": "village"
      },
      "geometry": {
        "type": "Point",
        "coordinates": [
          -72.9365522,
          -13.1112988
        ]
      },
      "id": "node/420839469"
    },
    {
      "type": "Feature",
      "properties": {
        "@id": "node/420846194",
        "name": "Paltaybamba",
        "place": "village"
      },
      "geometry": {
        "type": "Point",
        "coordinates": [
          -72.7265555,
          -13.0217307
        ]
      },
      "id": "node/420846194"
    },
    {
      "type": "Feature",
      "properties": {
        "@id": "node/420846195",
        "name": "Huayrurani",
        "place": "village",
        "source": "bing; local knowledge"
      },
      "geometry": {
        "type": "Point",
        "coordinates": [
          -72.7895091,
          -13.0434054
        ]
      },
      "id": "node/420846195"
    },
    {
      "type": "Feature",
      "properties": {
        "@id": "node/420846196",
        "name": "Yupanca",
        "place": "village"
      },
      "geometry": {
        "type": "Point",
        "coordinates": [
          -72.9298004,
          -13.0461503
        ]
      },
      "id": "node/420846196"
    },
    {
      "type": "Feature",
      "properties": {
        "@id": "node/420846197",
        "name": "Lucma",
        "place": "town"
      },
      "geometry": {
        "type": "Point",
        "coordinates": [
          -72.9333394,
          -13.0652519
        ]
      },
      "id": "node/420846197"
    },
    {
      "type": "Feature",
      "properties": {
        "@id": "node/420846198",
        "name": "Pucyura",
        "place": "village"
      },
      "geometry": {
        "type": "Point",
        "coordinates": [
          -72.9340734,
          -13.0928986
        ]
      },
      "id": "node/420846198"
    },
    {
      "type": "Feature",
      "properties": {
        "@id": "node/424213611",
        "name": "Yuveni",
        "place": "village"
      },
      "geometry": {
        "type": "Point",
        "coordinates": [
          -73.1340621,
          -12.7549468
        ]
      },
      "id": "node/424213611"
    },
    {
      "type": "Feature",
      "properties": {
        "@id": "node/424213613",
        "name": "Chuanquiri",
        "place": "village"
      },
      "geometry": {
        "type": "Point",
        "coordinates": [
          -73.1513447,
          -12.7961051
        ]
      },
      "id": "node/424213613"
    },
    {
      "type": "Feature",
      "properties": {
        "@id": "node/424213614",
        "name": "Consevidayoc",
        "place": "village"
      },
      "geometry": {
        "type": "Point",
        "coordinates": [
          -73.1768808,
          -12.9247114
        ]
      },
      "id": "node/424213614"
    },
    {
      "type": "Feature",
      "properties": {
        "@id": "node/424291403",
        "name": "Kiteni",
        "place": "town"
      },
      "geometry": {
        "type": "Point",
        "coordinates": [
          -73.0487486,
          -12.6472302
        ]
      },
      "id": "node/424291403"
    },
    {
      "type": "Feature",
      "properties": {
        "@id": "node/427705896",
        "name": "Uchumayo",
        "place": "village",
        "source": "http://www.mtc.gob.pe/estadisticas/estadistica/mapas/TRANSPORTES/VIAL/08_CUSCO_VIAL.pdf"
      },
      "geometry": {
        "type": "Point",
        "coordinates": [
          -72.6719039,
          -12.9499021
        ]
      },
      "id": "node/427705896"
    },
    {
      "type": "Feature",
      "properties": {
        "@id": "node/436613486",
        "is_in": "Cusco, Perú",
        "name": "Calca",
        "place": "town",
        "url": "http://www.municalca.gob.pe/",
        "wikidata": "Q3312974",
        "wikipedia": "es:Distrito de Calca"
      },
      "geometry": {
        "type": "Point",
        "coordinates": [
          -71.9560084,
          -13.3216818
        ]
      },
      "id": "node/436613486"
    },
    {
      "type": "Feature",
      "properties": {
        "@id": "node/436625108",
        "name": "Patacancha",
        "place": "village"
      },
      "geometry": {
        "type": "Point",
        "coordinates": [
          -72.1925412,
          -13.1748888
        ]
      },
      "id": "node/436625108"
    },
    {
      "type": "Feature",
      "properties": {
        "@id": "node/441006557",
        "is_in": "Cusco, Perú",
        "name": "Maras",
        "place": "town",
        "wikidata": "Q1026235",
        "wikipedia": "es:Maras"
      },
      "geometry": {
        "type": "Point",
        "coordinates": [
          -72.1564755,
          -13.3353489
        ]
      },
      "id": "node/441006557"
    },
    {
      "type": "Feature",
      "properties": {
        "@id": "node/441008049",
        "is_in": "Cusco, Perú",
        "name": "Urubamba",
        "place": "town",
        "wikidata": "Q3312967",
        "wikipedia": "es:Distrito de Urubamba"
      },
      "geometry": {
        "type": "Point",
        "coordinates": [
          -72.1159538,
          -13.3059361
        ]
      },
      "id": "node/441008049"
    },
    {
      "type": "Feature",
      "properties": {
        "@id": "node/441888431",
        "name": "Yanaoca",
        "place": "town",
        "source": "bing; MTC"
      },
      "geometry": {
        "type": "Point",
        "coordinates": [
          -71.4320629,
          -14.2169476
        ]
      },
      "id": "node/441888431"
    },
    {
      "type": "Feature",
      "properties": {
        "@id": "node/441888434",
        "name": "Chiripampa",
        "place": "village"
      },
      "geometry": {
        "type": "Point",
        "coordinates": [
          -71.4513921,
          -14.357861
        ]
      },
      "id": "node/441888434"
    },
    {
      "type": "Feature",
      "properties": {
        "@id": "node/441888435",
        "name": "Pucapuca",
        "place": "village"
      },
      "geometry": {
        "type": "Point",
        "coordinates": [
          -71.4402123,
          -14.257826
        ]
      },
      "id": "node/441888435"
    },
    {
      "type": "Feature",
      "properties": {
        "@id": "node/441888436",
        "name": "Pampamarca",
        "place": "village"
      },
      "geometry": {
        "type": "Point",
        "coordinates": [
          -71.4598346,
          -14.1473692
        ]
      },
      "id": "node/441888436"
    },
    {
      "type": "Feature",
      "properties": {
        "@id": "node/442391935",
        "is_in": "Loreto",
        "name": "San Juan de Puritania",
        "place": "village",
        "source": "http://geoportal.regionloreto.gob.pe"
      },
      "geometry": {
        "type": "Point",
        "coordinates": [
          -73.4582043,
          -4.3173393
        ]
      },
      "id": "node/442391935"
    },
    {
      "type": "Feature",
      "properties": {
        "@id": "node/442392020",
        "is_in": "Loreto",
        "name": "Porvenir",
        "place": "village"
      },
      "geometry": {
        "type": "Point",
        "coordinates": [
          -73.3734465,
          -4.229907
        ]
      },
      "id": "node/442392020"
    },
    {
      "type": "Feature",
      "properties": {
        "@id": "node/442393213",
        "is_in": "Loreto",
        "name": "Gallito",
        "place": "village",
        "source": "http://geoportal.regionloreto.gob.pe"
      },
      "geometry": {
        "type": "Point",
        "coordinates": [
          -73.1564021,
          -3.8306691
        ]
      },
      "id": "node/442393213"
    },
    {
      "type": "Feature",
      "properties": {
        "@id": "node/454744079",
        "name": "Santa Teresa",
        "place": "village"
      },
      "geometry": {
        "type": "Point",
        "coordinates": [
          -72.594278,
          -13.1301673
        ]
      },
      "id": "node/454744079"
    },
    {
      "type": "Feature",
      "properties": {
        "@id": "node/460203427",
        "is_in": "Cusco, Perú",
        "name": "Chinchero",
        "place": "town"
      },
      "geometry": {
        "type": "Point",
        "coordinates": [
          -72.051771,
          -13.3957999
        ]
      },
      "id": "node/460203427"
    },
    {
      "type": "Feature",
      "properties": {
        "@id": "node/467405445",
        "is_in:country": "Peru",
        "name": "Trompeteros",
        "place": "village"
      },
      "geometry": {
        "type": "Point",
        "coordinates": [
          -75.060153,
          -3.814836
        ]
      },
      "id": "node/467405445"
    },
    {
      "type": "Feature",
      "properties": {
        "@id": "node/467473383",
        "ele": "3800",
        "name": "Tuti",
        "place": "village"
      },
      "geometry": {
        "type": "Point",
        "coordinates": [
          -71.5495931,
          -15.5330178
        ]
      },
      "id": "node/467473383"
    },
    {
      "type": "Feature",
      "properties": {
        "@id": "node/467653110",
        "name": "Santo Tomás",
        "place": "town",
        "population": "8000",
        "source": "landsat"
      },
      "geometry": {
        "type": "Point",
        "coordinates": [
          -72.081998,
          -14.4500414
        ]
      },
      "id": "node/467653110"
    },
    {
      "type": "Feature",
      "properties": {
        "@id": "node/467949396",
        "name": "San Antonio del Estrecho",
        "place": "town",
        "source": "landsat",
        "wikidata": "Q19799162",
        "wikipedia": "es:San Antonio del Estrecho (Perú)"
      },
      "geometry": {
        "type": "Point",
        "coordinates": [
          -72.6684637,
          -2.4502824
        ]
      },
      "id": "node/467949396"
    },
    {
      "type": "Feature",
      "properties": {
        "@id": "node/476276784",
        "is_in": "Cusco, Perú",
        "name": "Pisac",
        "place": "town"
      },